id,name,latitude,longitude
1,"A12-cpp Sea, Netherlands",55.3992,3.8103
2,ALLIGATOR REEF,24.85,-80.6333
3,Aachen-Orsbach,50.798,6.024
4,Aadorf / Tänikon,47.4799,8.90493
5,Aalborg Airport,57.0928,9.84924
6,Aarhus Airport,56.3,10.619
7,Abbeville,50.1333,1.83333
8,Aberdeen Dyce Airport,57.2019,-2.19778
9,Aberporth,52.1333,-4.56667
10,Abha International Airport,18.2404,42.6566
11,Acquarossa / Comprovasco,46.4595,8.93549
12,Addington Field / Elizabethtown Regional Airport,37.686,-85.925
13,Adelaide International Airport,-34.945,138.531
14,Adelboden,46.4917,7.5607
15,Adolfo Suárez Madrid–Barajas Airport,40.4719,-3.56264
16,Afonso Pena Airport,-25.5285,-49.1758
17,Agen-La Garenne Airport,44.1747,0.59056
18,Ahaus,52.0813,6.9409
19,Aigle,46.3267,6.92447
20,Ajaccio-Napoléon Bonaparte Airport,41.9236,8.80292
21,Akita,39.7167,140.1
22,Al Qaisumah/Hafr Al Batin Airport,28.3352,46.1251
23,Al Wash Domestic Airport,26.1986,36.4764
24,Al-Ahsa International Airport,25.2853,49.4852
25,Al-Jawf Domestic Airport,29.7851,40.1
26,Albacete Airport / Los Llanos Air Base,38.9485,-1.86352
27,Albermarle,55.0167,-1.86667
28,Alberschwende,47.45,9.85
29,Albert Whitted Airport,27.7651,-82.627
30,Aldersbach-Kriestorf,48.616,13.051
31,Alfeld,51.9643,9.8072
32,Alfhausen,52.485,7.913
33,Alghero-Fertilia Airport,40.6321,8.29077
34,Alice Springs Airport,-23.8067,133.902
35,Alsfeld,50.756,9.258
36,Alsfeld-Eifa,50.745,9.345
37,Altdorf,46.8871,8.62189
38,Altenburg-Nobitz Airport,50.9819,12.5064
39,Altenrhein,47.4836,9.56685
40,Altenstadt,47.8342,10.8667
41,"Altheim, Kreis Biberach",48.148,9.46
42,Altmühlsee,49.142,10.73
43,Altomünster-Maisbrunn,48.406,11.312
44,Alzey,49.727,8.116
45,Amberg-Unterammersricht,49.469,11.855
46,Ambérieu Air Base (BA 278),45.9873,5.32844
47,Amerang-Pfaffing,48.02,12.293
48,Amsterdam Airport Schiphol,52.3086,4.76389
49,Ancien Aérodrome de Brive-La Roche,45.1508,1.4692
50,Andeer,46.6101,9.43198
51,Andermatt,46.6309,8.58055
52,Andernach,50.4237,7.4202
53,Angermünde,53.0316,13.9908
54,Anglesey Airport,53.2481,-4.53534
55,Ankara/Central,39.95,32.8833
56,Anklam,53.841,13.685
57,Ansbach,49.2964,10.5751
58,Antalya International Airport,36.8987,30.8005
59,Antwerp International Airport (Deurne),51.1894,4.46028
60,Aomori,40.8167,140.767
61,Apalachicola Regional Airport,29.7275,-85.0275
62,Arad International Airport,46.1766,21.262
63,Arar Domestic Airport,30.9066,41.1382
64,Araxos Airport,38.1511,21.4256
65,Arkona,54.6791,13.4344
66,Arnsberg-Neheim,51.463,7.978
67,Arnstein-Müdesheim,49.969,9.911
68,"Arolsen-Volkhardinghausen, Bad",51.322,9.056
69,Arosa,46.7927,9.67901
70,Artern,51.3744,11.292
71,Arturo Michelena International Airport,10.1497,-67.9284
72,Arzew,35.8167,-0.26667
73,Asahikawa,43.7667,142.367
74,Aschersleben-Mehringen,51.726,11.511
75,Asturias Airport,43.5636,-6.03462
76,Athen Helenikon Airport,37.8916,23.7302
77,Atlas Brasil Cantanhede Airport,2.84139,-60.6922
78,Attenkam,47.877,11.364
79,Aubenas,44.5333,4.36667
80,Aubstadt,50.333,10.449
81,Auch-Lamothe Airport,43.6878,0.60167
82,Auckland International Airport,-37.0081,174.792
83,Aue,50.591,12.714
84,Augsburg,48.4253,10.9417
85,Aurillac Airport,44.8914,2.42194
86,Auxerre Perrigny,47.8247,3.54972
87,Avignon-Caumont Airport,43.9073,4.90183
88,Aérodrome de Blois-Le Breuil,47.6785,1.20884
89,Aérodrome de Montélimar - Ancône,44.5836,4.74056
90,Aérodrome de Mâcon-Charnay,46.2951,4.79577
91,Aérodrome de Pontoise - Cormeilles en Vexin,49.0967,2.04083
92,Aérodrome de Reims Prunay,49.2087,4.15658
93,Aérodrome de Saint-Girons - Antichan,43.0078,1.10315
94,Aérodrome de Saint-Quentin - Roupy,49.8169,3.20667
95,Bacabal,-4.25,-44.7833
96,Bacău Airport,46.5219,26.9103
97,Bad Ragaz,47.0166,9.50259
98,Baden-Baden-Geroldsau,48.727,8.246
99,Balingen-Bronnhaupten,48.264,8.813
100,Balıkesir Merkez Airport,39.6193,27.926
101,Bamberg,49.8743,10.9206
102,Banja Luka,44.7833,17.2167
103,Barcelona International Airport,41.2971,2.07846
104,Bari,41.1167,16.8833
105,Bari Karol Wojtyła Airport,41.1389,16.7606
106,Barra do Garças Airport,-15.8613,-52.3889
107,Barsinghausen-Hohenbostel,52.32,9.43
108,Barth,54.3405,12.7108
109,Bartow Executive Airport,27.9434,-81.7834
110,Baruth,52.0613,13.4997
111,Basel / Binningen,47.5411,7.58352
112,Bassum,52.863,8.699
113,Bastorf-Kägsdorf (SWN),54.132,11.672
114,Beaucouze,47.4789,-0.61444
115,Beauvechain Air Base,50.7586,4.76833
116,Bedford,52.2167,-0.48333
117,Begumpet Airport,17.4531,78.4676
118,Beijing Capital International Airport,40.0801,116.585
119,Belfast International Airport,54.6575,-6.21583
120,Belgrad$Beograd,44.8,20.4667
121,Belgrade Nikola Tesla Airport,44.8184,20.3091
122,Belm,52.317,8.1694
123,Berge,52.62,12.787
124,Bergen,52.8152,9.9248
125,Bergen Airport Flesland,60.2934,5.21814
126,"Bergzabern, Bad",49.107,7.997
127,Bergün / Latsch,46.6273,9.75371
128,Berkenhout,52.65,4.98333
129,"Berleburg, Bad-Stünzel",50.984,8.368
130,Berlin Brandenburg,52.3807,13.5306
131,Berlin-Buch,52.631,13.502
132,Berlin-Dahlem (FU),52.4537,13.3017
133,Berlin-Marzahn,52.545,13.56
134,Berlin-Tempelhof,52.4675,13.4021
135,Bern / Zollikofen,46.9907,7.46406
136,Bernburg/Saale (Nord),51.822,11.711
137,Bertsdorf-Hörnitz,50.899,14.746
138,Berus,49.2641,6.6868
139,Besancon,47.25,5.98333
140,"Bevern, Kr. Holzminden",51.853,9.495
141,Beznau,47.5573,8.23333
142,Biarritz-Anglet-Bayonne Airport,43.4683,-1.53111
143,Białystok-Krywlany Airport,53.1014,23.1706
144,Bielefeld-Deppendorf,52.071,8.457
145,Bilbao Airport,43.3011,-2.91061
146,Bingley NO 2,53.8167,-1.86667
147,Binn,46.3677,8.19231
148,Birkelbach,51.011,8.273
149,Birmingham International Airport,52.4539,-1.74803
150,Birx/Rhön,50.531,10.048
151,Bischofszell,47.5088,9.2668
152,Bivio,46.4625,9.66864
153,Bière,46.5249,6.34239
154,Bjuroklubb,64.4833,21.5833
155,Blackpool International Airport,53.7717,-3.02861
156,Blankenrath,50.037,7.308
157,"Blatten, Lötschental",46.4205,7.82319
158,Blue Grass Airport,38.0365,-84.6059
159,Bob Sikes Airport,30.7788,-86.5221
160,Boca Raton Airport,26.3785,-80.1077
161,Boizenburg,53.3911,10.6878
162,Bologna,44.5333,11.2833
163,Bologna Guglielmo Marconi Airport,44.5354,11.2887
164,Boltenhagen,54.0027,11.1908
165,Boltigen,46.6235,7.38421
166,Bom Jesus,-28.6667,-50.4333
167,Bordeaux-Mérignac Airport,44.8283,-0.71556
168,Borken in Westfalen,51.873,6.886
169,Borkum-Flugplatz,53.598,6.702
170,Borkum-Süderstraße,53.579,6.67
171,Botosani,47.7333,26.65
172,Boulogne,50.7333,1.6
173,Bourg/St.Maurice,45.6167,6.76667
174,Bourges Airport,47.0581,2.37028
175,Bournemouth Airport,50.78,-1.8425
176,Bouveret,46.3935,6.85701
177,Bowman Field,38.228,-85.6637
178,Braila,45.2,27.9167
179,Brake,53.352,8.497
180,Bramham,53.8667,-1.31667
181,Brandenburg/Havel,52.423,12.567
182,Brasov-Ghimbav,45.7,25.5333
183,Braunlage,51.7234,10.6021
184,Braunschweig,52.2915,10.4464
185,Bregenz,47.5,9.75
186,Bremen,53.045,8.7979
187,Bremerhaven,53.5332,8.5761
188,Bremervörde,53.4451,9.139
189,Brest Bretagne Airport,48.4479,-4.41854
190,Bridlington,54.1,-0.16667
191,Brienz,46.7407,8.06086
192,Brig. Lysias Augusto Rodrigues Airport,-7.32044,-47.4587
193,Brilon-Thülen,51.414,8.65
194,Brisbane Archerfield Airport,-27.5703,153.008
195,Brisbane International Airport,-27.3842,153.117
196,Bristol Airport,51.3827,-2.71909
197,Brno-Tuřany Airport,49.1513,16.6944
198,Brocken,51.799,10.618
199,Brunswick Golden Isles Airport,31.2588,-81.4665
200,Brussels Airport,50.9014,4.48444
201,Brussels South Charleroi Airport,50.4592,4.45382
202,"Buchen, Kr. Neckar-Odenwald",49.518,9.321
203,Buchenbach,47.963,7.998
204,Buchs / Aarau,47.3844,8.07955
205,Budapest Liszt Ferenc International Airport,47.4298,19.2611
206,Budapest/Lorinc,47.4333,19.1833
207,Buffalora,46.6484,10.2672
208,Bukarest$Bucuresti/Filaret,44.4167,26.1
209,Bullet / La Frétaz,46.8406,6.57637
210,Burgas Airport,42.5696,27.5152
211,Burgwald-Bottendorf,51.031,8.815
212,Bursa Yenişehir Airport,40.2552,29.5626
213,Buzau,45.1333,26.85
214,Büchel (Flugplatz),50.1746,7.0595
215,Bückeburg,52.2817,9.0889
216,Băneasa International Airport,44.5032,26.1021
217,Cabauw Tower,51.9667,4.93333
218,Caen-Carpiquet Airport,49.1733,-0.45
219,Cagliari Elmas Airport,39.2515,9.05428
220,Cairns AAF (Fort Rucker) Air Field,31.2757,-85.7134
221,Calarasi,44.2,27.3333
222,Camborne,50.2167,-5.31667
223,Cambridge Airport,52.205,0.175
224,Camilla Mitchell County Airport,31.2129,-84.2368
225,Campo Délio Jardim de Mattos Airport,-22.8751,-43.3847
226,Campo de Marte Airport,-23.5091,-46.6378
227,Canberra International Airport,-35.3069,149.195
228,Cape Canaveral AFS Skid Strip,28.4676,-80.5666
229,Capital City Airport,38.1825,-84.9047
230,Caransebeş Airport,45.42,22.2533
231,Carcassonne Airport,43.216,2.30632
232,Cardiff International Airport,51.3967,-3.34333
233,Carlisle,54.9333,-2.96667
234,Carlsfeld,50.4313,12.6114
235,Cataratas International Airport,-25.6003,-54.485
236,Ceahlau Toaca,46.9833,25.95
237,Cecil Airport,30.2187,-81.8767
238,Celje,46.25,15.25
239,Celle,52.5959,10.0296
240,Cerklje Ob Krki,45.8987,15.5184
241,Cevio,46.3205,8.60316
242,Cham,47.1883,8.46464
243,Chambéry-Savoie Airport,45.6381,5.88023
244,Charles de Gaulle International Airport,49.0128,2.55
245,Charleville-Mézières Airport,49.7839,4.64708
246,Charlotte County Airport,26.9202,-81.9905
247,Charlwood,51.15,-0.23333
248,Chartres,48.4667,1.5
249,Chasseral,47.1318,7.05437
250,Chaumont,47.0492,6.97882
251,Chemnitz,50.7913,12.872
252,Chengdu Shuangliu International Airport,30.5785,103.947
253,Chiba,35.6,140.1
254,Chicago O'Hare International Airport,41.9786,-87.9048
255,Chieming,47.8843,12.5404
256,Chinchilla/Cenad,38.9333,-1.66667
257,Chitradurga,14.2333,76.4333
258,Chièvres Air Base,50.5758,3.831
259,Chongqing Jiangbei International Airport,29.7192,106.642
260,Christchurch International Airport,-43.4894,172.532
261,Chur,46.8704,9.53051
262,Churanov,49.0667,13.6167
263,Château-d'Oex,46.4798,7.13966
264,Châteaudun (BA 279) Air Base,48.0581,1.37662
265,"Châteauroux-Déols ""Marcel Dassault"" Airport",46.8603,1.72111
266,Ciampino–G. B. Pastine International Airport,41.7994,12.5949
267,Cimetta,46.2005,8.79165
268,Cincinnati Northern Kentucky International Airport,39.0488,-84.6678
269,City Of Derry Airport,55.0428,-7.16111
270,Clark Regional Airport,38.3654,-85.7382
271,Clearwater Air Park,27.9767,-82.7587
272,Clermont-Ferrand Auvergne Airport,45.7867,3.16917
273,Cleveland Hopkins International Airport,41.4117,-81.8498
274,Cluj-Napoca International Airport,46.7852,23.6862
275,Cognac-Châteaubernard (BA 709) Air Base,45.6583,-0.3175
276,Col des Mosses,46.3915,7.09824
277,Col du Grand St-Bernard,45.8691,7.17068
278,Coleshill,52.4833,-1.68333
279,Colmar-Houssen Airport,48.1099,7.35901
280,Comandante Gustavo Kraemer Airport,-31.3905,-54.1122
281,Confins (Aero),-19.6167,-43.9667
282,Constanta,44.2167,28.65
283,Copenhagen Kastrup Airport,55.6179,12.656
284,Copernicus Wrocław Airport,51.1027,16.8858
285,Cork Airport,51.8413,-8.49111
286,Coschen,52.019,14.725
287,Cottbus,51.776,14.3168
288,Courtelary,47.1808,7.09066
289,Craiova Airport,44.3181,23.8886
290,Crap Masegn,46.8423,9.18
291,Cressier,47.0476,7.05915
292,Cross City Airport,29.6355,-83.1048
293,Crystal River Airport,28.8673,-82.5713
294,Cuddalore,11.7667,79.7667
295,Cuxhaven,53.8713,8.7058
296,"Cölbe, Kr. Marburg-Biedenkopf",50.849,8.775
297,Dachwig,51.078,10.862
298,Dallas Executive Airport,32.6809,-96.8682
299,Dallas Fort Worth International Airport,32.8968,-97.038
300,Dammam,26.4333,49.8
301,Darmstadt,49.881,8.678
302,Darwin International Airport,-12.4147,130.877
303,Darßer Ort (SWN),54.474,12.501
304,Davos,46.813,9.84356
305,Daytona Beach International Airport,29.1799,-81.0581
306,De Bilt,52.1,5.18333
307,De Kooy Airport,52.9234,4.78062
308,Deauville-Saint-Gatien Airport,49.3653,0.15431
309,Debrecen International Airport,47.4889,21.6153
310,Decatur County Industrial Air Park,30.9715,-84.6374
311,Decimomannu Air Base,39.3542,8.97248
312,Deelen Air Base,52.0606,5.87306
313,Defuniak Springs Airport,30.7313,-86.1516
314,Deland Municipal Sidney H Taylor Field,29.067,-81.2838
315,Delémont,47.3517,7.34957
316,Demker,52.508,11.855
317,Deputado Luiz Eduardo Magalhães International Airport,-12.9086,-38.3225
318,Destin Executive Airport,30.4001,-86.4715
319,Destin-Fort Walton Beach Airport,30.4832,-86.5254
320,Deuselbach,49.7619,7.0542
321,Deutschneudorf-Brüderwiese,50.62,13.482
322,Deva,45.8667,22.9
323,Diepenbeek,50.9156,5.45028
324,Diepholz,52.5881,8.3424
325,Dijon-Bourgogne Airport,47.2689,5.09
326,Dillenburg,50.736,8.267
327,Dillingen/Donau-Fristingen,48.556,10.56
328,Dinard-Pleurtuit-Saint-Malo Airport,48.5877,-2.07996
329,Dippoldiswalde-Reinberg,50.912,13.709
330,Disentis,46.7066,8.85348
331,Dnjepropetrovsk,48.6,34.9667
332,Doberlug-Kirchhain,51.6451,13.5747
333,Dole-Tavaux Airport,47.0427,5.43506
334,Donalsonville Municipal Airport,31.0069,-84.8776
335,Donna Nook No 2,53.4747,0.15278
336,Dortmund Airport,51.5183,7.61224
337,Dothan Regional Airport,31.3213,-85.4496
338,Dourbes,50.1,4.6
339,Dravagen,62.1,13.6167
340,Dresden-Hosterwitz,51.022,13.847
341,Dresden-Klotzsche,51.1278,13.7543
342,Dresden-Strehlen,51.025,13.775
343,Drevsjo,61.8833,12.05
344,Drewitz bei Burg,52.217,12.164
345,Drobeta,44.6333,22.6333
346,Drumalbin,55.6167,-3.73333
347,Dublin Airport,53.4213,-6.27007
348,Duisburg-Baerl,51.509,6.702
349,Duke Field,30.6504,-86.5229
350,Dunedin,-45.9167,170.183
351,Dunkerque,51.05,2.33333
352,Dunstaffnage,56.45,-5.43333
353,Durham,54.7667,-1.58333
354,Dörnick,54.1654,10.3519
355,Dörpen,52.954,7.32
356,"Dürkheim, Bad",49.472,8.193
357,Düsseldorf,51.296,6.7686
358,Early County Airport,31.3975,-84.8948
359,East Malling,51.2833,0.45
360,Ebersberg-Halbing,48.1,11.987
361,Ebnat-Kappel,47.2734,9.10849
362,Ebrach,49.852,10.499
363,Edinburgh Airport,55.95,-3.3725
364,Edinburgh/Gogarbank,55.9333,-3.35
365,Eelde Airport,53.1197,6.57944
366,Eggishorn,46.4265,8.09273
367,Eglin FL/AFB,30.5667,-86.3167
368,Egolzwil,47.1794,8.00476
369,Eichstätt-Landershofen,48.878,11.235
370,Eindhoven Airport,51.4501,5.37453
371,Einsiedeln,47.133,8.75656
372,Eisenach,51.0007,10.3621
373,Eleftherios Venizelos International Airport,37.9364,23.9445
374,Ell,51.2,5.76667
375,Ellwangen-Rindelbach,48.99,10.131
376,Elm,46.9237,9.17535
377,Elpersbüttel,54.0691,9.0105
378,Elsendorf-Horneck,48.702,11.849
379,"Elster, Bad-Sohl",50.271,12.274
380,Elzach-Fisnacht,48.201,8.109
381,Embrun,44.5667,6.5
382,Emden,53.3881,7.2287
383,Emmendingen-Mundingen,48.138,7.835
384,Encruzilhada do Sul,-30.5333,-52.5167
385,Engelberg,46.8216,8.41051
386,Ennigerloh-Ostenfelde,51.842,8.061
387,Enterprise Municipal Airport,31.2997,-85.8999
388,Erfde,54.299,9.316
389,Erfurt-Weimar,50.9829,10.9608
390,Ernage,50.5667,4.68333
391,Esbjerg Airport,55.5259,8.5534
392,Eschwege,51.204,10.014
393,Eschwege-Eltmannshausen,51.195,9.989
394,Esenboğa International Airport,40.1281,32.9951
395,Eslohe,51.254,8.157
396,Essen-Bredeney,51.4041,6.9677
397,Eurico de Aguiar Salles Airport,-20.2581,-40.2864
398,EuroAirport Basel-Mulhouse-Freiburg Airport,47.59,7.52917
399,Evionnaz,46.1829,7.02675
400,Evolène / Villa,46.1122,7.50863
401,Fahy,47.4238,6.94119
402,Falcone–Borsellino Airport,38.176,13.091
403,"Falkenberg,Kr.Rottal-Inn",48.483,12.724
404,Faro Airport,37.0144,-7.96591
405,Faßberg,52.9157,10.1885
406,Fehmarn,54.5283,11.0606
407,Feldberg/Mecklenburg,53.3175,13.4175
408,Feldberg/Schwarzwald,47.8749,8.0038
409,Feldkirch,47.2667,9.61667
410,Fernandina Beach Municipal Airport,30.6118,-81.4612
411,Feuchtwangen-Heilbronn,49.1623,10.3661
412,Fiala-Fernbrugg Air Base,47.5357,14.1415
413,Fichtelberg,50.4283,12.9536
414,Fichtelberg/Oberfranken-Hüttstadl,49.981,11.838
415,Finsevatn,60.6,7.53333
416,Firenze,43.7833,11.2167
417,Flagler Executive Airport,29.4674,-81.2063
418,Flensburg (Schäferhaus),54.774,9.375
419,Florala Municipal Airport,31.0425,-86.3116
420,Florennes Air Base,50.2433,4.64583
421,"Flühli, LU",46.8894,8.02034
422,Fort Lauderdale Executive Airport,26.1973,-80.1707
423,Fort Lauderdale Hollywood International Airport,26.0726,-80.1527
424,Foscani,45.7,27.2
425,Francisco de Sá Carneiro Airport,41.2481,-8.68139
426,Frankenberg-Geismar,51.081,8.877
427,Frankfurt/Main,50.0259,8.5213
428,Frankfurt/Main-Westend,50.127,8.669
429,Freiburg,48.0232,7.8343
430,Freiburg/Elbe,53.828,9.249
431,Freudenberg/Main-Boxtal,49.764,9.406
432,Freudenstadt,48.4538,8.409
433,Fribourg / Grangeneuve,46.7714,7.11374
434,Friedrichshafen Airport,47.6713,9.51149
435,Friedrichshafen-Unterraderach,47.685,9.441
436,Friesoythe-Altenoythe,53.0643,7.9022
437,Fritzlar (Flugplatz),51.119,9.2799
438,Frutigen,46.599,7.65754
439,Fukui,36.05,136.233
440,Fukuoka,33.5833,130.383
441,Fukuoka Airport,33.5859,130.451
442,Fukushima,37.75,140.467
443,Fulda-Horas,50.567,9.653
444,Fürstenzell,48.5451,13.3532
445,Gainesville Regional Airport,29.6901,-82.2718
446,Galati,45.4833,28.0333
447,Gardelegen,52.5129,11.3942
448,Garmisch-Partenkirchen,47.483,11.0621
449,Garsebach bei Meißen,51.129,13.433
450,Gassim Airport,26.3028,43.7744
451,Gdańsk Lech Wałęsa Airport,54.3776,18.4662
452,Geilenkirchen (Flugplatz),50.9593,6.0392
453,Geisenheim,49.9859,7.9548
454,Geisingen,47.924,8.647
455,Gelbelsee,48.9481,11.4289
456,Geldern-Walbeck,51.494,6.246
457,General José Antonio Anzoategui International Airport,10.1111,-64.6922
458,Genoa Cristoforo Colombo Airport,44.4133,8.8375
459,Genthin,52.3875,12.1602
460,Genève / Cointrin,46.2475,6.12774
461,George Bush Intercontinental Houston Airport,29.9844,-95.3414
462,Gera-Leumnitz,50.8812,12.1289
463,Geringswalde-Altgeringswalde,51.088,12.933
464,Gersau,46.9961,8.52344
465,Gevelsberg-Oberbröking,51.333,7.341
466,Gießen/Wettenberg,50.6017,8.6439
467,Gifu,35.4,136.767
468,Gilserberg-Moischeid,50.966,9.05
469,Gilze Rijen Air Base,51.5674,4.93183
470,Girona Airport,41.901,2.76055
471,Giswil,46.8494,8.19022
472,Giurgiu,43.8752,25.9327
473,Glarus,47.0346,9.06696
474,Glasgow Bishopton,55.9,-4.53333
475,Glasgow International Airport,55.8719,-4.43306
476,Glen Ogle,56.4167,-4.31667
477,Gloucestershire Airport,51.8942,-2.16722
478,Glücksburg-Meierwik,54.8273,9.5058
479,Goa/Panjim,15.4833,73.8167
480,Godman Army Air Field,37.9071,-85.9721
481,Goiania,-16.6667,-49.25
482,Goldberg,53.6058,12.1034
483,Gollhofen,49.574,10.192
484,Gorna Oryahovitsa Airport,43.1514,25.7129
485,Gornergrat,45.9836,7.78574
486,Gottfrieding,48.6595,12.5388
487,Gourdon,44.75,1.4
488,Grafenwohr Army Air Field,49.6987,11.9402
489,Grainet-Rehberg,48.789,13.629
490,Grambek,53.573,10.68
491,Grambow-Schwennenz,53.384,14.373
492,Graz Airport,46.9911,15.4396
493,Greifswald,54.0967,13.4056
494,Greifswalder Oie,54.2437,13.9102
495,Grenchen,47.1791,7.41514
496,Grenoble Le Versoud Airport,45.2192,5.84972
497,Grenoble-Isère Airport,45.3629,5.32937
498,Grimsel Hospiz,46.5717,8.33326
499,Grono,46.2551,9.16376
500,Grotli Iii,62.0161,7.66361
501,Groß Lüsewitz,54.071,12.324
502,Großenkneten,52.934,8.237
503,Großer Arber,49.1129,13.1338
504,Großerlach-Mannenweiler,49.021,9.603
505,Grächen,46.1953,7.83682
506,Gräfenberg-Kasberg,49.664,11.224
507,Gründau-Breitenborn,50.267,9.185
508,Grünow,53.3153,13.9338
509,Guangzhou Baiyun International Airport,23.3924,113.299
510,Guararapes - Gilberto Freyre International Airport,-8.12649,-34.9236
511,Guernsey Airport,49.435,-2.60197
512,Gurayat Domestic Airport,31.4124,37.2789
513,Gyor,47.7167,17.6833
514,Gävle,60.7167,17.1667
515,Görlitz,51.162,14.951
516,Göschenen,46.6927,8.59536
517,Gösgen,47.3631,7.97373
518,Göteborg,57.7,12.0
519,Göttingen,51.5002,9.9507
520,Günzburg,48.488,10.261
521,Gütersloh/Ems,51.926,8.311
522,"Gütsch, Andermatt",46.6525,8.61553
523,Güttingen,47.6017,9.27943
524,H L Sonny Callahan Airport,30.4605,-87.877
525,Hagerstown Regional Richard A Henson Field,39.7079,-77.7295
526,Hagshult Air Base,57.2922,14.1372
527,Hahn,49.9463,7.2645
528,Hakodate,41.8167,140.75
529,Hallau,47.6973,8.47046
530,Hallig Hooge,54.574,8.513
531,Haltern (Wasserwerk),51.734,7.2
532,Hamburg-Finkenwerder Airport,53.5353,9.83556
533,Hamburg-Fuhlsbüttel,53.6332,9.9881
534,Hamburg-Neuwiedenthal,53.478,9.896
535,Hameln-Hastenbeck,52.082,9.408
536,Hanchey Army (Fort Rucker) Heliport,31.346,-85.6543
537,Hangzhou Xiaoshan International Airport,30.2295,120.434
538,Hannover,52.4644,9.6779
539,Harburg,48.7918,10.7062
540,Harstad,68.8,16.5333
541,Hartsfield Jackson Atlanta International Airport,33.6367,-84.4281
542,"Harzburg, Bad",51.9,10.57
543,Harzgerode,51.652,11.1367
544,Hawarden Airport,53.1781,-2.97778
545,Hechingen,48.375,8.98
546,Heckelberg,52.746,13.843
547,Heinersreuth-Vollhof,49.967,11.52
548,Heino,52.4333,6.26667
549,Heinsberg-Schleiden,51.041,6.104
550,Helgoland,54.175,7.892
551,Helmstedt-Emmerstedt,52.247,10.959
552,Helsinki Vantaa Airport,60.3172,24.9633
553,Henri Coandă International Airport,44.5711,26.085
554,Henry Tift Myers Airport,31.429,-83.4885
555,Heraklion International Nikos Kazantzakis Airport,35.3397,25.1803
556,Hercílio Luz International Airport,-27.6703,-48.5525
557,Heringsdorf Airport,53.8787,14.1523
558,Herlong Airport,30.2778,-81.8059
559,Hermaringen-Allewind,48.61,10.267
560,Hernando County Airport,28.4736,-82.4554
561,"Hersfeld, Bad",50.852,9.7377
562,Herstmonceux,50.9,0.31667
563,Herwijnen,51.8667,5.15
564,Hikone,35.2667,136.25
565,Hilgenroth,50.737,7.653
566,Hiroshima,34.4,132.467
567,Hiroshima Airport,34.4361,132.919
568,Hobart International Airport,-42.8361,147.51
569,Hof,50.3123,11.876
570,Hohenfels Army Air Field,49.2181,11.8361
571,Hohenpeißenberg,47.801,11.011
572,Hoherodskopf/Vogelsberg,50.5084,9.2246
573,Hohn,54.3146,9.539
574,Hohwacht,54.319,10.673
575,Holzdorf (Flugplatz),51.7657,13.1666
576,Holzkirchen,47.882,11.696
577,Homburg/Saar,49.328,7.353
578,Homerville Airport,31.0559,-82.7741
579,Homestead ARB Airport,25.4886,-80.3836
580,Hong Kong International Airport,22.3089,113.915
581,Hoogeveen Aws,52.7489,6.57306
582,Houari Boumediene Airport,36.691,3.21541
583,Houma Terrebonne Airport,29.5665,-90.6604
584,Hoyerswerda,51.4493,14.2533
585,Humain,50.2,5.25
586,Humberto Delgado Airport (Lisbon Portela Airport),38.7813,-9.13592
587,Hupsel,52.0667,6.65
588,Hurlburt Field,30.4278,-86.6893
589,Huy-Pabstorf,52.03,10.963
590,Hörnli,47.3709,8.94164
591,Hümmerich,50.565,7.484
592,Iaşi Airport,47.1785,27.6206
593,Idar-Oberstein,49.6927,7.3264
594,Ilanz,46.775,9.21535
595,Illesheim Air Base,49.4739,10.3881
596,Immokalee Regional Airport,26.4332,-81.401
597,Indira Gandhi International Airport,28.5665,77.1031
598,Ingelfingen-Stachenhausen,49.333,9.704
599,Ingolstadt (Flugplatz),48.7112,11.5362
600,Innsbruck Airport,47.2602,11.344
601,Interlaken,46.6722,7.87019
602,Invercargill,-46.4167,168.333
603,Inverness Airport,28.8086,-82.3165
604,Ioannina Airport,39.6964,20.8225
605,Ioannis Kapodistrias International Airport,39.6019,19.9117
606,Isle Of Man Airport,54.0833,-4.62389
607,Istres Le Tubé Air Base,43.5227,4.92384
608,Itaperuna,-21.2,-41.8833
609,Itzehoe,53.9897,9.5696
610,Ivai,-24.4,-50.8333
611,Izmir/Guzelyali,38.4333,27.1667
612,Jacareacanga Airport,-6.23316,-57.7769
613,Jack Edwards Airport,30.2905,-87.6718
614,Jacksonville International Airport,30.4941,-81.6879
615,Jena (Sternwarte),50.925,11.583
616,Jenbach,47.3833,11.75
617,Jersey Airport,49.2079,-2.19551
618,Jeßnitz,51.682,12.305
619,Jizan Regional Airport,16.9011,42.5858
620,Jungfraujoch,46.5476,7.98544
621,Jyväskylä Airport,62.3995,25.6783
622,Kagoshima,31.55,130.55
623,Kahl/Main,50.064,8.993
624,Kahler Asten,51.1803,8.4891
625,Kaisersbach-Cronhütte,48.917,9.6871
626,Kaiserslautern,49.426,7.756
627,Kalamata Airport,37.0683,22.0255
628,Kall-Sistig,50.501,6.526
629,Kalmar,56.6833,16.3
630,Kanazawa,36.5833,136.633
631,Kansas City International Airport,39.2976,-94.7139
632,Karasjok,69.4667,25.5167
633,Karlovy Vary International Airport,50.203,12.915
634,Karlshagen,54.105,13.824
635,Karlsruhe Baden-Baden Airport,48.7794,8.0805
636,Karup Airport,56.2975,9.12463
637,Kassel-Calden Airport,51.4173,9.38497
638,Kaufbeuren-Oberbeuren,47.876,10.585
639,Kbely Air Base,50.1214,14.5436
640,Kempten,47.7233,10.3348
641,Kent International Airport,51.3422,1.34611
642,Key West International Airport,24.5561,-81.7596
643,Kharkiv International Airport,49.9248,36.29
644,Kiefersfelden-Gach,47.619,12.167
645,Kiel-Holtenau,54.3776,10.1424
646,Kiev Zhuliany International Airport,50.4019,30.4519
647,King Abdulaziz Air Base,26.2654,50.152
648,King Abdulaziz International Airport,21.6796,39.1565
649,King Khaled international Airport,24.9576,46.6988
650,Kirchberg/Jagst-Herboldshausen,49.18,9.98
651,Kirchdorf/Poel,54.0,11.434
652,Kiruna Airport,67.822,20.3368
653,Kissimmee Gateway Airport,28.2898,-81.4371
654,"Kissingen, Bad",50.224,10.0792
655,Kitzingen,49.736,10.178
656,Klagenfurt Airport,46.6425,14.3377
657,Kleine Brogel Air Base,51.1683,5.47
658,Kleiner Feldberg/Taunus,50.2218,8.4469
659,Kleiner Inselsberg,50.846,10.48
660,Klettwitz,51.555,13.885
661,Kleve,51.761,6.095
662,Klippeneck,48.1054,8.7548
663,Klitzschen bei Torgau,51.519,12.907
664,Kobe,34.6833,135.183
665,Kochi,33.55,133.533
666,Kofu,35.6667,138.55
667,"Kohlgrub, Bad (Rosshof)",47.665,11.081
668,Koltsovo Airport,56.7431,60.8027
669,Konstanz,47.6952,9.1307
670,Kopenhagen$Koebenhavn,55.7667,12.5333
671,Koppigen,47.1189,7.6055
672,Kosice,48.6667,21.2167
673,Kraków John Paul II International Airport,50.0777,19.7848
674,Kraljevo,43.7,20.7
675,"Kreuznach, Bad",49.85,7.871
676,Kristiansand Airport,58.2042,8.08537
677,Kronach,50.252,11.321
678,Krölpa-Rockendorf,50.682,11.515
679,"Kubschütz, Kr. Bautzen",51.16,14.504
680,Kumagaya,36.15,139.383
681,Kumamoto,32.8167,130.717
682,Kumamoto Airport,32.8373,130.855
683,Kuopio Airport,63.0071,27.7978
684,Kurdjali,41.65,25.3667
685,Kushiro,42.9861,144.377
686,Kyoto,35.0167,135.733
687,Kyritz,52.9363,12.4093
688,Köln-Bonn,50.8646,7.1575
689,Köln-Stammheim,50.989,6.978
690,"Königshofen, Bad",50.284,10.446
691,Königswinter-Heiderhof,50.7293,7.204
692,Kösching,48.83,11.487
693,Köthen (Anhalt),51.751,12.009
694,Kümmersbruck,49.4283,11.9016
695,La Brévine,46.9838,6.6103
696,La Chaux-de-Fonds,47.0829,6.79231
697,La Coruna,43.3667,-8.41667
698,La Dôle,46.4248,6.09945
699,La Guardia Airport,40.7772,-73.8726
700,La Roche-sur-Yon Airport,46.7019,-1.37863
701,La Rochelle Aeroport,46.1667,-1.18333
702,Laage (Flugplatz),53.9156,12.279
703,Labrea,-7.25,-64.8333
704,Lachen / Galgenen,47.1792,8.85869
705,Lahr,48.3647,7.828
706,Lake City Gateway Airport,30.182,-82.5769
707,Lake Wales Municipal Airport,27.8938,-81.6204
708,Lakeland Linder International Airport,27.9889,-82.0186
709,Lamezia Terme Airport,38.9054,16.2423
710,Landeck,47.1403,10.5636
711,Landshut-Reithof,48.573,12.258
712,Langenlipsdorf,51.917,13.088
713,Langenwetzendorf-Göttendorf,50.661,12.076
714,Langnau i.E.,46.9396,7.80642
715,Langres,47.85,5.33333
716,Larisa Air Base,39.6502,22.4655
717,Laupheim,48.2176,9.9097
718,Lautertal-Hörgenau,50.581,9.286
719,Lautertal-Oberlauter,50.3066,10.9679
720,Le Luc-Le Cannet Airport,43.3847,6.38714
721,Le Mans-Arnage Airport,47.9486,0.20167
722,Le Moléson,46.5462,7.01775
723,Le Puy-Loudes Airport,45.0807,3.76289
724,Le Touquet-Côte d'Opale Airport,50.5174,1.62059
725,LeHavre/Octeville,49.5333,0.08333
726,Lebanon Springfield Airport,37.6335,-85.2418
727,Lechfeld,48.1849,10.8507
728,Leck,54.7903,8.9514
729,Leeds Bradford Airport,53.8659,-1.66057
730,Leesburg International Airport,28.8231,-81.8087
731,Leeuwarden Air Base,53.2286,5.76056
732,Leibstadt,47.5974,8.1882
733,Leinefelde,51.3933,10.3123
734,Leipzig-Holzhausen,51.3151,12.4462
735,Leipzig/Halle,51.4347,12.2396
736,Lelystad Airport,52.4603,5.52722
737,Lennestadt-Theten,51.133,8.035
738,Lenzen/Elbe,53.101,11.486
739,Lenzkirch-Ruhbühl,47.86,8.231
740,Leonardo da Vinci–Fiumicino Airport,41.8003,12.2389
741,Les Attelas,46.0991,7.26865
742,Les Charbonnières,46.6701,6.31243
743,Les Diablerets,46.3267,7.20378
744,Les Marécottes,46.1189,7.0166
745,Leuchtturm Alte Weser,53.8633,8.1275
746,Leuchtturm Kiel,54.4996,10.2737
747,Leutkirch-Herlazhofen,47.7955,10.0324
748,Lichtenhain-Mittelndorf,50.9383,14.2093
749,Lichtentanne,50.688,12.433
750,Liebenburg-Othfresen,52.011,10.397
751,Lille-Lesquin Airport,50.5633,3.08689
752,Lillehammer,61.1,10.4667
753,Limoges Airport,45.8628,1.17944
754,Lindenberg,52.2085,14.118
755,Linz-Hörsching Airport / Vogler Air Base,48.2332,14.1875
756,Linz/Stadt,48.3,14.2833
757,"Lippspringe, Bad",51.7854,8.8388
758,Lippstadt-Bökenförde,51.634,8.395
759,Lissabon$Lisboa,38.7667,-9.13333
760,List auf Sylt,55.011,8.4125
761,Liverpool,53.3333,-2.86667
762,Liège Airport,50.6374,5.44322
763,Ljubljana/Bezigrad,46.0667,14.5167
764,Ljubljana/Brnik,46.2167,14.4833
765,Lleida,41.6261,0.59806
766,"Lobenstein, Bad",50.451,11.635
767,Locarno / Monti,46.1723,8.78749
768,Lodz,51.7333,19.4
769,Logan International Airport,42.3643,-71.0052
770,Lohr/Main-Halsbach,50.013,9.654
771,London City Airport,51.5053,0.05528
772,London Heathrow Airport,51.4706,-0.46194
773,Louisville Muhammad Ali International Airport,38.1744,-85.736
774,Lowe AHP (Fort Rucker) Heliport,31.3558,-85.7512
775,Lucenec,48.3333,19.7333
776,Lugano,46.0042,8.96032
777,Luleå Airport,65.5438,22.122
778,Luxembourg-Findel International Airport,49.6233,6.20444
779,Luxeuil-Saint-Sauveur (BA 116) Air Base,47.7831,6.36417
780,Luzern,47.0364,8.30102
781,Lviv International Airport,49.8125,23.9561
782,Lyon Saint-Exupéry Airport,45.7256,5.08111
783,Lyon-Bron Airport,45.7272,4.94427
784,Lägern,47.4819,8.39722
785,Löhnberg-Obershausen,50.562,8.239
786,Lübben-Blumenfelde,51.927,13.88
787,Lübeck-Blankensee,53.8025,10.6989
788,Lübeck/ATC,53.8,10.7167
789,Lüchow,52.9724,11.1374
790,Lüdenscheid,51.2452,7.6425
791,Lüdinghausen-Brochtrup,51.766,7.519
792,Lügde-Paenbruch,51.8664,9.271
793,M. R. Štefánik Airport,48.1702,17.2127
794,Maastricht Aachen Airport,50.9117,5.77014
795,Mac Dill Air Force Base,27.8493,-82.5212
796,MacDill Air Force Base Auxiliary Field,27.6506,-81.3494
797,Maebashi,36.4,139.067
798,Magadino / Cadenazzo,46.16,8.93367
799,Magdeburg,52.1029,11.5827
800,Magnitogorsk,53.35,59.0833
801,Mainz-Lerchenberg (ZDF),49.966,8.214
802,Maisach-Galgen,48.207,11.204
803,Malmö Sturup Airport,55.5363,13.3762
804,Malpensa International Airport,45.6306,8.72811
805,Manchester Airport,53.3494,-2.27952
806,Manderscheid-Sonnenhof,50.102,6.801
807,Mannheim,49.5062,8.5585
808,Mannheim-City Airport,49.4731,8.51417
809,Manschnow,52.5468,14.5452
810,Maramureș International Airport,47.6606,23.4672
811,Marche Airport,43.6163,13.3623
812,Marco Island Executive Airport,25.995,-81.6725
813,Marechal Cunha Machado International Airport,-2.58536,-44.2341
814,Marechal Rondon Airport,-15.6529,-56.1167
815,Marianna Municipal Airport,30.8378,-85.1819
816,Maribor Airport,46.4799,15.6861
817,Marienberg,50.651,13.1469
818,"Marienberg, Bad",50.6621,7.9603
819,Marknesse,52.7,5.88333
820,Markt Erlbach-Mosbach,49.488,10.628
821,Marnitz,53.3223,11.9319
822,Marseille Provence Airport,43.4393,5.22142
823,Marsens,46.6565,7.06967
824,Martinroda,50.734,10.882
825,Mathod,46.737,6.56798
826,Matro,46.4101,8.92474
827,Matsue,35.45,133.067
828,Matsuyama,33.8333,132.783
829,McCarran International Airport,36.0801,-115.152
830,Meinerzhagen-Redlendorf,51.09,7.629
831,Meiningen,50.5611,10.3771
832,Meiringen,46.7322,8.16925
833,Melbourne International Airport,-37.6733,144.843
834,Melle,50.9833,3.81667
835,Memmingen Allgau Airport,47.9888,10.2395
836,Mende,44.5336,3.45444
837,Menz,53.102,13.042
838,Meppen,52.7156,7.3176
839,"Mergentheim, Bad-Neunkirchen",49.477,9.762
840,Merklingen,48.512,9.765
841,Messina,38.2,15.55
842,Metten,48.855,12.919
843,Metzingen,48.538,9.273
844,Meßstetten-Appental,48.1694,8.9433
845,Miami Executive Airport,25.6479,-80.4328
846,Miami International Airport,25.7932,-80.2906
847,Miami-Opa Locka Executive Airport,25.907,-80.2784
848,Michelstadt,49.669,9.009
849,Michelstadt-Vielbrunn,49.7177,9.0997
850,Middle Wallop Airfield,51.1394,-1.56861
851,Miercurea Ciuc,46.3713,25.7726
852,Milano Linate Airport,45.4451,9.27674
853,Millau,44.1167,3.01667
854,Mina,21.4167,39.8667
855,Mineralnyye Vody Airport,44.2251,43.0819
856,Minneapolis–Saint Paul International Airport / Wold–Chamberlain Field,44.882,-93.2218
857,Mishima,35.1167,138.933
858,Miskolc,48.0833,20.7667
859,"Mississippi Canyon, LA",28.35,-88.2667
860,Mito,36.3833,140.467
861,Mittelnkirchen-Hohenfelde,53.553,9.61
862,Mittenwald-Buckelwiesen,47.478,11.265
863,Mittenwald/Obb.,47.429,11.262
864,Miyazaki,31.9167,131.417
865,MoD Boscombe Down Airport,51.1522,-1.74741
866,Mobile Downtown Airport,30.6268,-88.0681
867,Mobile Regional Airport,30.6912,-88.2428
868,Mohamed Boudiaf International Airport,36.276,6.62039
869,Mont-Rigi,50.5167,6.06667
870,Montabaur,50.438,7.806
871,Montana,46.2988,7.46081
872,Monte Alegre,-2.0,-54.0833
873,Monte Generoso,45.9276,9.01788
874,Monte Rosa-Plattje,45.9566,7.81457
875,Montpellier-Méditerranée Airport,43.5762,3.96301
876,Moody Air Force Base,30.9678,-83.193
877,Moorgrund Gräfen-Nitzendorf,50.843,10.252
878,Moringen-Lutterbeck,51.721,9.835
879,Morioka,39.7,141.167
880,Morozovsk,48.35,41.8667
881,Mosen,47.2439,8.23283
882,Mosjøen Airport (Kjærstad),65.784,13.2149
883,Moskau$Moskva,55.8333,37.6167
884,Moss Airport Rygge,59.3788,10.7854
885,Mottec,46.1479,7.62403
886,Moultrie Municipal Airport,31.0849,-83.8033
887,Mumbles,51.5667,-3.98333
888,"Muskau, Bad",51.566,14.701
889,Málaga Airport,36.6749,-4.49911
890,Mário Ribeiro Airport,-16.7069,-43.8189
891,Möhlin,47.5722,7.87791
892,Möhrendorf-Kleinseebach,49.65,11.007
893,Mönchengladbach Airport,51.2303,6.50444
894,Mühlacker,48.9721,8.8735
895,Mühldorf,48.279,12.5024
896,Mühleberg,46.9733,7.27822
897,Mühlhausen/Thüringen-Görmar,51.206,10.498
898,Müllheim,47.806,7.639
899,Müncheberg,52.518,14.123
900,München-Flughafen,48.3477,11.8134
901,München-Riem,48.1369,11.7094
902,München-Stadt,48.1632,11.5429
903,Münsingen-Apfelstetten,48.385,9.484
904,Münster/Osnabrück,52.1344,7.6969
905,NASA Shuttle Landing Facility Airport,28.615,-80.6945
906,Nagano,36.6667,138.2
907,Nagasaki,32.7333,129.867
908,Nagoya,35.1667,136.967
909,Nagykanizsa,46.45,16.9667
910,Naluns / Schlivera,46.8172,10.2614
911,Nancy-Essey Airport,48.6921,6.23046
912,Nancy-Ochey (BA 133) Air Base,48.5831,5.955
913,Nantes Atlantique Airport,47.1532,-1.61073
914,Napf,47.0047,7.94012
915,Naples International Airport,40.886,14.2908
916,Naples Municipal Airport,26.1526,-81.7753
917,Nara,34.6833,135.833
918,Narita International Airport,35.7647,140.386
919,"Nauheim, Bad",50.357,8.751
920,Naumburg/Saale-Kreipitzsch,51.104,11.711
921,Naval Air Station Key West/Boca Chica Field,24.5758,-81.6889
922,Nejran Airport,17.6114,44.4192
923,Nesbyen-Todokk,60.5667,9.13333
924,Netaji Subhash Chandra Bose International Airport,22.6547,88.4467
925,Neu-Ulrichstein,50.7513,9.0224
926,Neubulach-Oberhaugstett,48.652,8.68
927,Neuburg/Donau (Flugplatz),48.7086,11.2147
928,Neuburg/Kammel-Langenhaslach,48.312,10.377
929,Neuchâtel,47.0001,6.9533
930,"Neuenahr, Bad-Ahrweiler",50.535,7.085
931,Neuhaus am Rennweg,50.5002,11.1344
932,Neuhütten/Spessart,50.0083,9.4238
933,Neukirchen-Hauptschwenda,50.892,9.405
934,Neunkirchen-Seelscheid-Krawinkel,50.845,7.372
935,Neunkirchen-Wellesweiler,49.344,7.23
936,Neustadt am Kulm-Filchendorf,49.817,11.864
937,Nevers-Fourchambault Airport,47.0026,3.11333
938,New Smyrna Beach Municipal Airport,29.0557,-80.9489
939,Newark Liberty International Airport,40.6925,-74.1687
940,Newcastle,-32.9167,151.783
941,Newcastle Airport,55.0375,-1.69167
942,Nice-Côte d'Azur Airport,43.6584,7.21587
943,Nideggen-Schmidt,50.674,6.424
944,Niederstetten,49.3895,9.9667
945,Nienburg,52.671,9.223
946,Niigata,37.9167,139.05
947,Niksic,42.7667,18.95
948,Nimes/Courbessac,43.8667,4.4
949,Nis Airport,43.3373,21.8537
950,Nitra Airfield,48.2794,18.1328
951,Nizhny Novgorod,56.2667,44.0
952,Norderney,53.7123,7.1519
953,Nordholz (Flugplatz),53.7647,8.6583
954,Norrköing SMHI center,58.5833,16.15
955,North Perry Airport,26.0012,-80.2407
956,Northeast Florida Regional Airport,29.9592,-81.3398
957,Northeim-Stöckheim,51.752,9.945
958,Northwest Florida Beaches International Airport,30.3571,-85.7954
959,Nossen,51.051,13.3
960,Nottingham/MET,53.0,-1.25
961,Notzingen,48.671,9.463
962,Nova Gorica,45.9,13.6333
963,Novi Sad,45.3333,19.85
964,Novo Mesto,45.8,15.1833
965,Nyon / Changins,46.401,6.22772
966,Nörvenich (Flugplatz),50.8294,6.6602
967,Nürburg-Barweiler,50.3602,6.8697
968,Nürnberg,49.503,11.0549
969,Nürnberg-Netzstall,49.426,11.254
970,Oberhaching-Laufzorn,48.013,11.552
971,Oberharz am Brocken-Stiege,51.665,10.881
972,Oberpfaffenhofen Airport,48.0814,11.2831
973,Oberriet / Kriessern,47.3766,9.61271
974,Oberstdorf,47.3984,10.2759
975,Obersulm-Willsbach,49.128,9.353
976,Oberviechtach,49.452,12.437
977,Oberzent-Beerfelden,49.562,8.967
978,Oberägeri,47.1336,8.60821
979,Ocna Sugatag,47.7833,23.9333
980,Odense Airport,55.4767,10.3309
981,Odessa International Airport,46.4268,30.6765
982,Offenbach-Wetterpark,50.0899,8.7862
983,Ohlsbach,48.433,7.993
984,Oita,33.2333,131.617
985,Okayama,34.65,133.917
986,Okeechobee County Airport,27.2628,-80.8498
987,Olbersleben,51.151,11.332
988,Olsdorf,49.945,6.382
989,Omsk (28698-0),55.0167,73.3833
990,Oradea International Airport,47.0253,21.9025
991,Orange-Caritat (BA 115) Air Base,44.1405,4.86672
992,Orlando Executive Airport,28.5455,-81.3329
993,Orlando International Airport,28.4294,-81.309
994,Orlando Sanford International Airport,28.7776,-81.2375
995,Orléans-Bricy (BA 123) Air Base,47.9878,1.76056
996,Ormond Beach Municipal Airport,29.3006,-81.1136
997,Oron,46.5723,6.85824
998,Osaka,34.6833,135.517
999,Oschatz,51.296,13.0928
1000,Osijek Airport,45.4627,18.8102
1001,Osijek-Cepin,45.5,18.5667
1002,Oslo Gardermoen Airport,60.1939,11.1004
1003,Oslo-Blindern,59.95,10.7167
1004,Ostend-Bruges International Airport,51.1989,2.86222
1005,Ostenfeld (Rendsburg),54.319,9.805
1006,Osterfeld,51.0873,11.9292
1007,Ostheim v.d. Rhön,50.454,10.221
1008,Oulu Airport,64.9301,25.3546
1009,Oxford (Kidlington) Airport,51.8369,-1.32
1010,Oy-Mittelberg-Petersthal,47.636,10.389
1011,Padenstedt (Pony-Park),54.019,9.926
1012,Paderborn Lippstadt Airport,51.6141,8.61632
1013,Page Field,26.5866,-81.8633
1014,Palatka Municipal - Lt. Kay Larkin Field,29.6586,-81.6889
1015,Palm Beach County Park Airport,26.593,-80.0851
1016,Palm Beach International Airport,26.6832,-80.0956
1017,Pamplona Airport,42.77,-1.64633
1018,Pampulha - Carlos Drummond de Andrade Airport,-19.8512,-43.9506
1019,Pari-Cachoeira,-0.16667,-69.9667
1020,Paris Beauvais Tillé Airport,49.4544,2.11278
1021,Paris-Le Bourget Airport,48.9694,2.44139
1022,Paris-Orly Airport,48.7233,2.37944
1023,Paris/Montsouris,48.8167,2.33333
1024,Parsberg/Oberpfalz-Eglwang,49.151,11.69
1025,Passo del Bernina,46.4092,10.0196
1026,Patrick Air Force Base,28.2349,-80.6101
1027,Pau Pyrénées Airport,43.38,-0.41861
1028,Payerne,46.8116,6.94247
1029,Pelzerhaken,54.0893,10.8773
1030,Pensacola International Airport,30.4734,-87.1866
1031,Per Airport,47.624,17.804
1032,Perl-Nennig,49.535,6.379
1033,Perpignan-Rivesaltes (Llabanère) Airport,42.7404,2.87067
1034,Pershore,52.15,-2.03333
1035,Perth International Airport,-31.9403,115.967
1036,Peter O Knight Airport,27.9156,-82.4493
1037,Pforzheim-Ispringen,48.933,8.697
1038,Pfullendorf,47.935,9.287
1039,Philadelphia International Airport,39.8719,-75.2411
1040,Piding,47.772,12.907
1041,Pilatus,46.9789,8.25226
1042,Pinto Martins International Airport,-3.77628,-38.5326
1043,Piotta,46.5148,8.68804
1044,Pirmasens,49.191,7.588
1045,Piz Corvatsch,46.418,9.82131
1046,Piz Martegnas,46.5772,9.52954
1047,Plaffeien,46.7477,7.26626
1048,Plant City Municipal Airport,28.0002,-82.1642
1049,Plauen,50.4818,12.13
1050,Ploiesti,44.95,26.0
1051,Plovdiv International Airport,42.0678,24.8508
1052,Plymouth,50.35,-4.11667
1053,Podgorica Airport / Podgorica Golubovci Airbase,42.3594,19.2519
1054,Poitiers-Biard Airport,46.5877,0.30667
1055,Pommelsbrunn-Mittelburg,49.478,11.536
1056,Pompano Beach Airpark,26.2471,-80.1111
1057,Ponta Pelada Airport,-3.14604,-59.9863
1058,Poprad-Tatry Airport,49.0736,20.2411
1059,Portland International Airport,45.5887,-122.598
1060,Porto de Moz Airport,-1.74145,-52.2361
1061,Poschiavo / Robbia,46.3472,10.063
1062,Postojna,45.7667,14.2
1063,Potsdam,52.381,13.062
1064,Poznań-Ławica Airport,52.421,16.8263
1065,Prackenbach-Neuhäusl,49.109,12.823
1066,Prag$Praha-Libus,50.0,14.45
1067,Presidente Juscelino Kubitschek International Airport,-15.8692,-47.9208
1068,Prince Mohammad Bin Abdulaziz Airport,24.5534,39.7051
1069,Pulkovo Airport,59.8003,30.2625
1070,Pully,46.5123,6.66752
1071,Pusan,35.1,129.033
1072,Putbus,54.3643,13.4771
1073,Pécs-Pogány Airport,45.9909,18.241
1074,Qingdao Jiaodong International Airport,36.362,120.088
1075,Quedlinburg,51.795,11.132
1076,Queenstown International Airport,-45.0211,168.739
1077,Querfurt-Mühle Lodersleben,51.39,11.541
1078,Quickborn,53.7331,9.8776
1079,Quinten,47.1287,9.21605
1080,RAF Boulmer,55.421,-1.60057
1081,RAF Dishforth,54.1372,-1.42025
1082,RAF Kinloss,57.6494,-3.56064
1083,RAF Lakenheath,52.4093,0.561
1084,RAF Linton-On-Ouse,54.0489,-1.25275
1085,RAF Lyneham,51.5051,-1.99343
1086,RAF Shawbury,52.7982,-2.66804
1087,RAF West Freugh,54.8511,-4.94778
1088,RNAS Yeovilton,51.0094,-2.63882
1089,Rabah Bitat Airport,36.8222,7.80917
1090,Raf Odiham,51.2341,-0.94283
1091,Raf Thorney Island,50.816,-0.92003
1092,Rahden-Kleinendorf,52.446,8.591
1093,Ramstein Air Base,49.4369,7.60028
1094,Rauris,47.2167,13.0
1095,Razgrad,43.5667,26.5
1096,Rechlin,53.331,12.715
1097,Regensburg,49.0425,12.1019
1098,Reichshof-Eckenhagen,50.991,7.696
1099,Reimlingen,48.825,10.507
1100,Reit im Winkl,47.675,12.47
1101,Rennes-Saint-Jacques Airport,48.0695,-1.73479
1102,Renningen-Ihinger Hof,48.743,8.924
1103,Retie,51.2167,5.03333
1104,Reus Air Base,41.1474,1.16717
1105,Rheinau-Memprechtshofen,48.67,7.994
1106,Rheine-Bentlage,52.2887,7.3866
1107,Rheinfelden,47.559,7.772
1108,Rheinstetten,48.9726,8.3301
1109,Riga International Airport,56.9236,23.9711
1110,Rijeka/Kozala,45.3333,14.45
1111,Rimnicu Valcea,45.1,24.3667
1112,Rio Galeão – Tom Jobim International Airport,-22.81,-43.2506
1113,Robièi,46.4431,8.51339
1114,Rockhampton Airport,-23.3819,150.475
1115,Rodez-Aveyron,44.4103,2.4825
1116,Rohrbach,48.5667,14.0
1117,Ronald Reagan Washington National Airport,38.8521,-77.0377
1118,Rosenheim,47.875,12.128
1119,Rosiori de Vede,44.1,24.9833
1120,Rostherne No 2,53.3667,-2.38333
1121,Rostock-Warnemünde,54.1803,12.0808
1122,Rotenburg (Wümme),53.129,9.34
1123,Roth,49.2162,11.1035
1124,Roth bei Prüm,50.305,6.386
1125,Rothenburg ob der Tauber,49.385,10.173
1126,Rotterdam The Hague Airport,51.9569,4.43722
1127,Rotthalmünster (Landwirtschaftsamt),48.362,13.194
1128,Rottweil,48.181,8.636
1129,Rouen Airport,49.3842,1.1748
1130,Rovaniemi Airport,66.5648,25.8304
1131,Rubem Berta Airport,-29.7822,-57.0382
1132,Runkel-Ennerich,50.394,8.142
1133,Ruppertsecken,49.647,7.884
1134,Ruthenstrom,53.72,9.419
1135,Röllbach,49.764,9.253
1136,Rünenberg,47.4346,7.87941
1137,S. Bernardino,46.4635,9.1847
1138,Saarbrücken-Burbach,49.241,6.935
1139,Saarbrücken-Ensheim,49.2128,7.1077
1140,Sachsenheim,48.957,9.071
1141,Sacramento Executive Airport,38.5125,-121.493
1142,Saga,33.2667,130.3
1143,Saint-Brieuc-Armor Airport,48.5378,-2.85444
1144,Saint-Dizier-Robinson (BA 113) Air Base,48.636,4.89942
1145,Saint-Nazaire-Montoir Airport,47.3106,-2.15667
1146,Saint-Étienne-Bouthéon Airport,45.5406,4.29639
1147,Salamanca Airport,40.9521,-5.50199
1148,Saldenburg-Entschenreuth,48.783,13.315
1149,Salen-Reutenen,47.6512,9.02391
1150,Salgado Filho Airport,-29.9944,-51.1714
1151,Salzburg Airport,47.7933,13.0043
1152,"Salzuflen, Bad",52.1042,8.7521
1153,Samedan,46.5262,9.87947
1154,Samuels Field,37.8143,-85.4996
1155,Sandberg,50.352,10.003
1156,Sankt Peter-Ording,54.3279,8.6031
1157,Santa Genoveva Airport,-16.632,-49.2207
1158,Santa Maria,-29.7,-53.7
1159,Santa Maria Airport,-29.7114,-53.6882
1160,Santa Marta,-28.6,-48.8167
1161,Santander Airport,43.4271,-3.82001
1162,Santos Dumont Airport,-22.9105,-43.1631
1163,Sao Luiz Gonzaga,-28.4,-55.0167
1164,Sapporo,43.05,141.333
1165,Sarajevo International Airport,43.8246,18.3315
1166,Sarajevo-Bejelave,43.8667,18.4333
1167,"Sattel, SZ",47.0811,8.63697
1168,Satu Mare Airport,47.7033,22.8857
1169,Schaafheim-Schlierbach,49.92,8.967
1170,Schaffen Airfield,50.9992,5.06556
1171,Schaffhausen,47.6898,8.62014
1172,Schauenburg-Elgershausen,51.2835,9.359
1173,Schiers,46.9755,9.66807
1174,Schleiz,50.5679,11.8041
1175,Schleswig,54.528,9.549
1176,Schleswig-Jagel,54.457,9.5203
1177,Schlüchtern-Herolz,50.345,9.553
1178,Schmerikon,47.2249,8.9403
1179,Schmieritz-Weltwitz,50.728,11.784
1180,Schmücke,50.6546,10.7693
1181,Schneifelforsthaus,50.297,6.419
1182,Schonungen-Mainberg,50.058,10.297
1183,Schorndorf-Knöbling,49.164,12.618
1184,Schotten,50.493,9.123
1185,Schwandorf,49.328,12.087
1186,Schwarzburg,50.644,11.194
1187,Schwerin,53.6425,11.3872
1188,Schwäbisch Gmünd-Weiler,48.77,9.874
1189,Schärding,48.4667,13.4333
1190,Schönhagen (Ostseebad),54.641,10.0238
1191,Schönwald/Ofr.-Brunn,50.185,12.079
1192,Schüpfheim,46.947,8.01244
1193,Scuol,46.7933,10.2833
1194,Sebring Regional Airport,27.4564,-81.3424
1195,Seefeld,47.3333,11.1833
1196,Seehausen,52.8911,11.7297
1197,Seesen,51.904,10.189
1198,Segl-Maria,46.4323,9.76233
1199,Semmerzake,50.9333,3.66667
1200,Senador Petrônio Portela Airport,-5.05994,-42.8235
1201,Sendai,38.2667,140.9
1202,Sendai Airport,38.1397,140.917
1203,Sennybridge,52.0667,-3.61667
1204,Seoul,37.5667,126.967
1205,Sevilla,37.4167,-5.9
1206,Sevilla Airport,37.418,-5.89311
1207,Shanghai,31.4,121.467
1208,Shannon Airport,52.702,-8.92482
1209,Shell Army Heliport,31.3627,-85.8494
1210,Shizuoka,34.9667,138.4
1211,Shoeburyness Landwick,51.55,0.83333
1212,Shoreham Airport,50.8356,-0.29722
1213,Sibiu International Airport,45.7856,24.0913
1214,Sidi Bel Abbes Airport,35.1718,-0.59328
1215,Siegerland Airport,50.7077,8.08297
1216,Siegsdorf-Höll,47.835,12.655
1217,Sigmaringen-Laiz,48.072,9.194
1218,Sigmarszell-Zeisertsweiler,47.578,9.74
1219,Simbach/Inn,48.272,13.027
1220,Singapore Changi Airport,1.35019,103.994
1221,Singen,47.774,8.822
1222,Sion,46.2186,7.3302
1223,Skopje International Airport,41.9616,21.6214
1224,Slavonski Brod,45.1667,18.0
1225,Slubice,52.35,14.6
1226,Sofia Airport,42.6967,23.4114
1227,Sohland/Spree,51.059,14.427
1228,Soltau,52.9604,9.793
1229,Sontra,51.061,9.927
1230,Soure,-0.71667,-48.55
1231,Southampton Airport,50.9503,-1.3568
1232,Southampton Oceanography Center,50.9,-1.4
1233,Southwest Florida International Airport,26.5362,-81.7552
1234,Spa (la Sauvenière) Airfield,50.4825,5.9103
1235,Space Coast Regional Airport,28.5148,-80.7992
1236,Spangdahlem Air Base,49.9727,6.6925
1237,Split Airport,43.5389,16.298
1238,Split/Marjan,43.5167,16.4333
1239,St Athan Royal Air Force Base,51.4,-3.43333
1240,St Hubert Airfield,50.0359,5.40425
1241,St Lucie County International Airport,27.4951,-80.3683
1242,St Simons Island Airport,31.1518,-81.3913
1243,St-Prex,46.4837,6.443
1244,St. Gallen,47.4255,9.39853
1245,St.Auban,44.0667,6.0
1246,St.Catherines Point,50.5833,-1.3
1247,"Sta. Maria, Val Müstair",46.6023,10.4263
1248,Stabio,45.8434,8.93236
1249,Starkenberg-Tegkwitz,50.977,12.342
1250,Stavanger Airport Sola,58.8767,5.63778
1251,Stavanger Vaaland,58.95,5.7333
1252,Stavoren Aws,52.8967,5.38333
1253,Steckborn,47.6686,8.98143
1254,"Steinau, Kr. Cuxhaven",53.695,8.874
1255,Steinhagen-Negast,54.248,13.042
1256,Steinkjer,64.0167,11.45
1257,Sterling Municipal Airport,40.6153,-103.265
1258,Stockholm-Arlanda Airport,59.6519,17.9186
1259,Stockholm-Bromma Airport,59.3544,17.9417
1260,Stornoway Airport,58.2156,-6.33111
1261,Strasbourg Airport,48.5383,7.62823
1262,Straubing,48.8275,12.5597
1263,Stuart Powell Field,37.5779,-84.7697
1264,Stuttgart (Schnarrenberg),48.8281,9.2
1265,Stuttgart-Echterdingen,48.6883,9.2235
1266,Stötten,48.6656,9.8648
1267,Sulina,45.1667,29.7333
1268,Suwannee County Airport,30.3001,-83.0247
1269,Svratouch,49.7333,16.0333
1270,Sydney Kingsford Smith International Airport,-33.9461,151.177
1271,Szczecin-Goleniów Solidarność Airport,53.5847,14.9022
1272,Szeged Airfield,46.2469,20.0908
1273,Szentgotthard,46.9167,16.3167
1274,Säntis,47.2495,9.34347
1275,Süpplingen,52.232,10.92
1276,Tabuk Airport,28.3654,36.6189
1277,Tacheng,46.7333,83.0
1278,Taibei,25.0333,121.517
1279,Taipei Songshan Airport,25.0694,121.552
1280,Takamatsu,34.3167,134.05
1281,Takayama,36.15,137.25
1282,Tallahassee Regional Airport,30.3965,-84.3503
1283,Tallinn,59.3833,24.5833
1284,Tampa Executive Airport,28.014,-82.3453
1285,Tampa International Airport,27.9755,-82.5332
1286,Tann/Rhön,50.639,10.023
1287,Tarauacá Airport,-8.15553,-70.783
1288,Tarbes-Lourdes-Pyrénées Airport,43.1787,-0.00644
1289,Targoviste,44.9333,25.4333
1290,Tartu-Toravere,58.2641,26.4613
1291,Tefé Airport,-3.38294,-64.7241
1292,Tennant Creek Airport,-19.6344,134.183
1293,Teterow,53.761,12.557
1294,Teuschnitz,50.4,11.389
1295,The Florida Keys Marathon Airport,24.7261,-81.0514
1296,Thessaloniki Macedonia International Airport,40.5197,22.9709
1297,Thiruvananthapuram/Intl,8.48333,76.95
1298,Tholey,49.4737,7.0385
1299,Thomasville Regional Airport,30.9016,-83.8813
1300,Threave,54.93,-3.95
1301,Thun,46.7499,7.58522
1302,Tianjin,39.1,117.167
1303,Timişoara Traian Vuia Airport,45.8099,21.3379
1304,Tirana International Airport Mother Teresa,41.4147,19.7206
1305,Tirschenreuth-Lodermühl,49.858,12.354
1306,Titlis,46.7705,8.42581
1307,Tokushima,34.0667,134.583
1308,Tokyo City,35.6833,139.767
1309,Tokyo Haneda International Airport,35.5523,139.78
1310,Torino / Bric Della Croce,45.0333,7.73333
1311,Torino-Aeritalia Airport,45.0864,7.60337
1312,Torres,-29.3333,-49.7333
1313,Tottori,35.4833,134.233
1314,Toulon-Hyères Airport,43.0973,6.14603
1315,Toulouse-Blagnac Airport,43.6291,1.36382
1316,Tours-Val-de-Loire Airport,47.4322,0.72761
1317,Townsville Airport / RAAF Base Townsville,-19.2529,146.767
1318,Toyama,36.7,137.2
1319,Transilvania Târgu Mureş International Airport,46.4677,24.4125
1320,Trappes,48.7744,2.00972
1321,Trausnitz-Reisach,49.532,12.28
1322,Trawsgoed,52.35,-3.95
1323,Trent Lott International Airport,30.4628,-88.5292
1324,Treuen,50.547,12.286
1325,Trevico,41.05,15.2333
1326,Tri-County Airport,30.8458,-85.6014
1327,Trier-Petrisberg,49.7479,6.6583
1328,Trier-Zewen,49.733,6.613
1329,Trollenhagen,53.5997,13.3039
1330,Tromsö,69.65,18.9333
1331,Trondheim Airport Vaernes,63.4578,10.924
1332,Trostberg,48.031,12.54
1333,Troyes-Barberey Airport,48.3221,4.0167
1334,Trysil,61.3,12.2667
1335,Tsu,34.7333,136.517
1336,Tucuruí Airport,-3.78601,-49.7203
1337,Tulcea Danube Delta Airport,45.0625,28.7143
1338,Tulloch Bridge,56.8667,-4.7
1339,Turin Airport,45.2008,7.64963
1340,Turochak,52.25,87.1269
1341,Twenthe,52.2667,6.9
1342,Twistetal-Mühlhausen,51.334,8.913
1343,Tyndall Air Force Base,30.0696,-85.5754
1344,Tyndrum,56.42,-4.66
1345,Tönisvorst,51.29,6.444
1346,UFS Deutsche Bucht,54.1796,7.4587
1347,Uccle,50.8,4.35
1348,Ueckermünde,53.7444,14.0697
1349,Uelzen,52.941,10.529
1350,Ulm-Mähringen,48.4418,9.9216
1351,Ulrichen,46.5049,8.30824
1352,Umeå Airport,63.7918,20.2828
1353,Ummendorf,52.1601,11.1759
1354,Utsunomiya,36.55,139.867
1355,Vaduz,47.1275,9.51758
1356,Val de Cans/Júlio Cezar Ribeiro International Airport,-1.37925,-48.4763
1357,Valbella,46.755,9.55443
1358,Valdosta Regional Airport,30.7825,-83.2767
1359,Valencia Airport,39.4893,-0.48163
1360,Vals,46.6278,9.18871
1361,Varfu Omu,45.45,25.45
1362,Varna Airport,43.2321,27.8251
1363,Veilsdorf,50.417,10.816
1364,Venice Marco Polo Airport,45.5053,12.3519
1365,Venice Municipal Airport,27.0716,-82.4403
1366,Vero Beach Regional Airport,27.6556,-80.4179
1367,Vevey / Corseaux,46.4712,6.81506
1368,Vichy-Charmeil Airport,46.1697,3.40374
1369,Vicosoprano,46.353,9.6278
1370,Vienna International Airport,48.1103,16.5697
1371,Vigo Airport,42.2318,-8.62677
1372,Villars-Tiercelin,46.6218,6.71007
1373,Villingen-Schwenningen,48.045,8.461
1374,Vilnius International Airport,54.6341,25.2858
1375,Visp,46.3029,7.84296
1376,Vjazma,55.1667,34.4
1377,"Vlissingen, ZE, Netherlands",51.4413,3.5959
1378,Vogtareuth (Kläranlage),47.955,12.174
1379,Volgograd International Airport,48.7825,44.3455
1380,Volkel Air Base,51.6572,5.70778
1381,Václav Havel Airport Prague,50.1008,14.26
1382,Wadi Al Dawasir Airport,20.5043,45.1996
1383,Wagersrott,54.665,9.805
1384,Waghäusel-Kirrlach,49.245,8.537
1385,Waibstadt,49.2943,8.9053
1386,Wakayama,34.2333,135.167
1387,Waldems-Reinborn,50.26,8.361
1388,Waldmünchen,49.391,12.6838
1389,Walney Island,54.1167,-3.25
1390,Waltershausen,50.896,10.548
1391,Waltrop-Abdinghof,51.597,7.405
1392,Wangerland-Hooksiel,53.641,8.081
1393,Warburg,51.5039,9.1118
1394,Waren (Müritz),53.5196,12.6654
1395,Warsaw Chopin Airport,52.1657,20.9671
1396,Wasserkuppe,50.4973,9.9427
1397,Wattisham Airfield,52.1275,0.95619
1398,Waycross Ware County Airport,31.2491,-82.3955
1399,Weeze Airport,51.6024,6.14217
1400,Weiden,49.6662,12.1844
1401,Weidenbach-Weiherschneidbach,49.225,10.609
1402,Weihenstephan-Dürnast,48.4024,11.6946
1403,Weilerswist-Lommersum,50.712,6.791
1404,Weilheim-Bierbronnen,47.68,8.196
1405,Weimar-Schöndorf,51.018,11.354
1406,Weinbiet,49.3758,8.1212
1407,"Weingarten, Kr. Ravensburg",47.806,9.621
1408,Weiskirchen/Saar,49.553,6.812
1409,Weissfluhjoch,46.8333,9.80639
1410,Weißenburg-Emetzheim,49.0115,10.9308
1411,Wellington International Airport,-41.3272,174.805
1412,Wendisch Evern,53.214,10.47
1413,Werl,51.5763,7.8879
1414,Wernigerode,51.8454,10.7686
1415,Wernigerode-Schierke,51.766,10.653
1416,Westdorpe Aws,51.2247,3.86111
1417,Westerland Sylt Airport,54.9132,8.34047
1418,Wick Airport,58.4589,-3.09306
1419,Wielenbach (Demollstr.),47.883,11.158
1420,Wien/Mariabrunn,48.2069,16.2294
1421,Wiesbaden Army Airfield,50.0498,8.3254
1422,Wiesbaden-Auringen,50.132,8.317
1423,Wiesbaden-Biebrich,50.042,8.233
1424,Wiesenburg,52.1207,12.4585
1425,Wijk Aan Zee,52.5,4.6
1426,William P Hobby Airport,29.6454,-95.2789
1427,Williston Municipal Airport,29.3542,-82.4729
1428,Winterbourne,52.45,-1.93333
1429,Witham Field,27.1817,-80.2211
1430,Wittenberg,51.8892,12.6445
1431,Wittenborn,53.922,10.227
1432,Wittingen-Vorhop,52.642,10.663
1433,Wittmundhafen,53.5504,7.6672
1434,Wittstock-Rote Mühle,53.186,12.495
1435,Woensdrecht Air Base,51.4491,4.34203
1436,Wolfach,48.295,8.239
1437,Worms,49.605,8.366
1438,Worpswede-Hüttenbusch,53.276,8.986
1439,Wu Lu Mu Qi (51463-0),43.7833,87.65
1440,Wuhan Tianhe International Airport,30.7838,114.208
1441,Wunsiedel-Schönbrunn,50.0315,11.9745
1442,Wunstorf,52.4605,9.4311
1443,Wuppertal-Buchenhofen,51.226,7.105
1444,Wusterwitz,52.361,12.387
1445,Wutöschingen-Ofteringen,47.678,8.38
1446,Wynau,47.255,7.78747
1447,Wädenswil,47.221,8.67771
1448,Würenlingen / PSI,47.5365,8.22694
1449,Würzburg,49.7704,9.9576
1450,Xi'an Xianyang International Airport,34.4471,108.752
1451,Xinyang,32.1333,114.05
1452,Yamagata,38.25,140.35
1453,Yamaguchi,34.15,131.45
1454,Yokohama,35.4333,139.65
1455,Zagreb Airport,45.7429,16.0688
1456,Zagreb/Gric,45.8167,15.9833
1457,Zaporizhzhia,47.8,35.0167
1458,Zaragoza Air Base,41.6662,-1.04155
1459,Zehdenick,52.966,13.327
1460,Zeitz,51.031,12.15
1461,Zephyrhills Municipal Airport,28.2282,-82.1559
1462,Zermatt,46.0293,7.75243
1463,Zhengzhou Xinzheng International Airport,34.5197,113.841
1464,Zinnwald-Georgenfeld,50.7314,13.7516
1465,Zugspitze,47.421,10.9848
1466,Zumbi dos Palmares Airport,-9.51081,-35.7917
1467,Zwiesel,49.028,13.2385
1468,Zürich / Affoltern,47.4277,8.51795
1469,Zürich / Fluntern,47.3779,8.56574
1470,Zürich / Kloten,47.4796,8.53596
1471,enni_neukirchen,51.458,6.63133
1472,enveha_bfg,51.4645,11.9928
1473,evh_neu_oben,51.4787,11.9361
1474,evh_neu_unten,51.478,11.9363
1475,makkah,21.4333,39.7667
1476,Çanakkale Airport,40.1377,26.4268
1477,Çıldır Airport,37.815,27.8953
1478,Évreux-Fauville (BA 105) Air Base,49.0287,1.21986
1479,Öhringen,49.207,9.5176
1480,İstanbul Atatürk Airport,40.9769,28.8146
1481,Žilina Airport,49.2315,18.6135
